City,Lat,Lng,Max Temp,Humidity,Cloudiness,Wind Speed,Country,Date
atuona,-9.8,-139.03,77.85,73,36,22.08,PF,1602700102
norman wells,65.28,-126.83,21.2,79,90,13.87,CA,1602700102
hermanus,-34.42,19.23,63.0,72,2,4.0,ZA,1602700102
barrow,71.29,-156.79,24.8,68,90,14.99,US,1602700102
bredasdorp,-34.53,20.04,57.2,82,0,3.36,ZA,1602700102
dikson,73.51,80.55,29.12,93,100,23.4,RU,1602700102
gerash,27.67,54.14,66.2,23,0,1.61,IR,1602700103
seoul,37.57,126.98,48.2,34,90,3.83,KR,1602699865
rikitea,-23.12,-134.97,73.94,78,46,17.72,PF,1602700103
saint-augustin,51.23,-58.65,48.6,67,99,8.14,CA,1602700103
butaritari,3.07,172.79,82.72,73,100,12.75,KI,1602700103
pevek,69.7,170.31,33.24,88,100,16.49,RU,1602700104
port-gentil,-0.72,8.78,80.6,74,75,11.41,GA,1602700104
cape town,-33.93,18.42,63.0,82,10,6.93,ZA,1602699924
olinda,-8.01,-34.86,78.8,83,75,6.93,BR,1602700104
thompson,55.74,-97.86,32.0,90,75,17.22,CA,1602700104
eyl,7.98,49.82,81.01,77,32,16.87,SO,1602700104
kiama,-34.68,150.87,59.0,85,88,1.01,AU,1602700105
bilma,18.69,12.92,89.83,13,0,4.07,NE,1602700105
vestmannaeyjar,63.44,-20.27,48.2,81,90,20.8,IS,1602700105
busselton,-33.65,115.33,55.99,70,5,10.18,AU,1602700105
puyo,-1.47,-77.98,75.2,78,75,3.36,EC,1602700105
punta arenas,-53.15,-70.92,50.0,53,75,23.04,CL,1602700105
jamestown,42.1,-79.24,63.0,47,1,9.17,US,1602700105
hobart,-42.88,147.33,55.4,71,40,14.99,AU,1602699945
calvinia,-31.47,19.78,73.94,20,0,3.96,ZA,1602700106
tuktoyaktuk,69.45,-133.04,21.2,85,75,11.41,CA,1602700106
port alfred,-33.59,26.89,61.45,79,0,16.87,ZA,1602700106
coquimbo,-29.95,-71.34,64.4,63,20,11.41,CL,1602700106
kemijarvi,66.71,27.43,35.28,87,93,7.83,FI,1602700106
manzhouli,49.6,117.43,25.97,84,0,6.44,CN,1602700106
bluff,-46.6,168.33,33.01,93,53,1.01,NZ,1602700107
mataura,-46.19,168.86,33.01,93,58,1.01,NZ,1602700107
kapaa,22.08,-159.32,75.99,83,1,5.82,US,1602700107
plyussa,58.43,29.37,45.43,87,100,11.48,RU,1602700107
carupano,10.67,-63.26,86.36,69,4,9.82,VE,1602700107
georgetown,5.41,100.34,82.4,78,20,3.36,MY,1602700107
cherskiy,68.75,161.3,31.37,93,75,10.33,RU,1602700108
cayenne,4.93,-52.33,91.4,46,2,12.75,GF,1602700108
hilo,19.73,-155.09,80.01,50,1,6.93,US,1602700109
saint-jean-port-joli,47.22,-70.27,51.01,96,73,10.0,CA,1602700109
crib point,-38.35,145.2,66.0,59,63,18.7,AU,1602700109
hisar,29.17,75.72,79.74,24,19,3.74,IN,1602699923
albany,42.6,-73.97,68.0,35,0,3.0,US,1602700109
srednekolymsk,67.45,153.68,30.65,90,39,2.3,RU,1602700109
margate,51.38,1.39,60.01,66,100,5.99,GB,1602700109
sabha,27.04,14.43,80.62,21,11,3.89,LY,1602700110
killorglin,52.1,-9.78,50.0,87,59,1.12,IE,1602700110
ribeira grande,38.52,-28.7,73.4,73,20,8.05,PT,1602700110
port elizabeth,-33.92,25.57,62.6,82,0,11.41,ZA,1602700110
muncar,-8.43,114.33,76.19,89,72,1.61,ID,1602700110
polovinnoye,54.79,65.99,50.97,47,52,13.33,RU,1602700110
contamana,-7.33,-75.02,99.37,28,17,4.38,PE,1602700110
plymouth,41.83,-70.83,69.8,45,1,10.29,US,1602700111
severo-kurilsk,50.68,156.12,43.29,70,55,10.69,RU,1602700111
alofi,-19.06,-169.92,68.0,82,96,4.7,NU,1602700111
touros,-5.2,-35.46,84.2,62,75,13.87,BR,1602700111
mount gambier,-37.83,140.77,62.6,72,40,5.82,AU,1602700111
upernavik,72.79,-56.15,33.03,87,0,4.12,GL,1602700111
coahuayana,18.73,-103.68,80.6,74,20,3.0,MX,1602700111
vestnes,62.63,7.09,44.6,70,40,8.05,NO,1602700112
senneterre,48.38,-77.23,50.0,53,75,9.17,CA,1602700112
ushuaia,-54.8,-68.3,46.4,61,40,26.4,AR,1602700112
gizo,-8.1,156.84,81.46,73,98,7.67,SB,1602700113
castro,-24.79,-50.01,84.16,43,41,4.27,BR,1602700113
tuatapere,-46.13,167.68,33.01,93,39,1.01,NZ,1602700113
siguiri,11.67,-9.5,82.69,62,85,2.08,GN,1602700113
mahebourg,-20.41,57.7,73.4,83,20,6.93,MU,1602700113
vaini,-21.2,-175.2,71.6,78,90,9.17,TO,1602700113
saint-philippe,-21.36,55.77,75.2,83,75,1.12,RE,1602700113
garut,-7.2,107.89,68.65,86,96,3.76,ID,1602700114
hofn,64.25,-15.21,46.4,87,90,8.05,IS,1602700114
sesimbra,38.44,-9.1,64.4,52,20,18.34,PT,1602700114
mitsamiouli,-11.38,43.28,77.0,94,40,4.7,KM,1602700114
half moon bay,37.46,-122.43,79.0,64,1,16.11,US,1602700114
cabo san lucas,22.89,-109.91,87.01,74,40,9.17,MX,1602700114
ancud,-41.87,-73.82,59.0,50,71,8.05,CL,1602700114
chimbote,-9.09,-78.58,68.23,70,52,10.2,PE,1602700115
tasiilaq,65.61,-37.64,41.0,75,75,12.75,GL,1602700115
jacobina,-11.18,-40.52,92.21,23,1,7.43,BR,1602700115
khatanga,71.97,102.5,24.31,98,100,9.46,RU,1602700115
mar del plata,-38.0,-57.56,59.0,44,5,20.8,AR,1602700115
antofagasta,-23.65,-70.4,66.0,63,20,16.11,CL,1602700115
goulburn,-34.75,149.72,52.0,87,56,3.06,AU,1602700116
carutapera,-1.2,-46.02,87.31,56,61,11.52,BR,1602700116
praia,14.92,-23.51,82.4,78,75,14.99,CV,1602700116
qaanaaq,77.48,-69.36,32.27,82,40,6.91,GL,1602700116
port keats,-14.25,129.55,81.25,82,84,6.04,AU,1602700116
ust-nera,64.57,143.2,30.18,89,100,2.24,RU,1602700116
bethel,41.37,-73.41,68.0,45,1,6.93,US,1602699858
magrath,49.42,-112.87,35.01,91,90,5.82,CA,1602700117
port lincoln,-34.73,135.87,74.97,27,100,24.0,AU,1602699928
beringovskiy,63.05,179.32,38.84,85,100,12.08,RU,1602700117
nouadhibou,20.93,-17.03,80.6,65,6,16.11,MR,1602700117
san cristobal,7.77,-72.22,89.6,49,40,10.29,VE,1602700118
kimparana,12.83,-4.92,89.69,33,6,3.33,ML,1602700118
roma,43.21,-75.46,63.0,59,90,12.75,US,1602699946
nanakuli,21.39,-158.15,78.8,69,1,3.36,US,1602700118
muros,42.78,-9.06,57.99,71,9,3.0,ES,1602700118
komsomolskiy,40.43,71.72,51.8,71,0,9.17,UZ,1602700119
high rock,26.62,-78.28,86.0,70,40,16.11,BS,1602700119
wajima,37.4,136.9,59.47,64,92,18.07,JP,1602700120
inhambane,-23.86,35.38,71.6,78,75,11.41,MZ,1602700120
rodrigues alves,-7.74,-72.65,96.04,39,63,1.16,BR,1602700120
fougamou,-1.22,10.58,74.39,93,84,3.02,GA,1602700121
limon,10.0,-83.03,82.4,78,90,6.93,CR,1602700121
kirillov,59.86,38.38,44.6,81,90,6.71,RU,1602700121
ukmerge,55.25,24.75,48.99,87,100,1.12,LT,1602700121
east london,-33.02,27.91,62.6,77,1,6.93,ZA,1602699955
new norfolk,-42.78,147.06,52.0,66,100,2.51,AU,1602700107
torbay,47.67,-52.73,54.0,66,75,23.04,CA,1602700121
kaitangata,-46.28,169.85,39.0,90,58,1.99,NZ,1602700121
galveston,29.37,-94.97,84.0,65,40,10.29,US,1602700122
egvekinot,66.32,-179.17,26.19,97,99,6.42,RU,1602700122
caravelas,-17.71,-39.25,81.48,66,35,11.99,BR,1602700122
harper,4.38,-7.72,77.99,87,33,7.85,LR,1602700122
baishishan,43.58,127.57,29.3,86,0,4.34,CN,1602700122
rio grande,-32.03,-52.1,64.96,74,8,9.55,BR,1602700122
umm kaddadah,13.6,26.69,93.42,13,15,5.5,SD,1602700122
sorland,67.67,12.69,46.4,75,75,16.11,NO,1602700123
meulaboh,4.14,96.13,78.73,78,100,4.59,ID,1602699927
sawtell,-30.38,153.1,51.8,93,0,4.7,AU,1602700123
hauterive,46.09,3.45,48.2,87,75,4.7,FR,1602700123
tiksi,71.69,128.87,10.58,91,0,2.06,RU,1602700123
ixtapa,20.7,-105.2,87.01,66,75,6.93,MX,1602700123
kavaratti,10.57,72.64,82.17,77,90,19.84,IN,1602700123
padang,-0.95,100.35,79.03,73,100,2.75,ID,1602700124
atambua,-9.11,124.89,73.44,79,84,2.75,ID,1602700124
gat,31.61,34.76,78.01,86,0,7.07,IL,1602700125
puerto ayora,-0.74,-90.35,77.0,73,75,5.82,EC,1602700125
avarua,-21.21,-159.78,71.6,64,94,6.93,CK,1602700125
vila franca do campo,37.72,-25.43,71.6,78,20,13.87,PT,1602700125
victoria,22.29,114.16,79.0,81,100,1.01,HK,1602699862
longyearbyen,78.22,15.64,26.6,86,20,5.82,SJ,1602699853
chuy,-33.7,-53.46,66.58,70,4,9.46,UY,1602700126
puerto del rosario,28.5,-13.86,73.4,78,40,11.41,ES,1602700126
yellowknife,62.46,-114.35,26.01,68,90,21.92,CA,1602700126
clyde river,70.47,-68.59,23.0,100,75,3.36,CA,1602700126
nikolskoye,59.7,30.79,46.99,75,90,13.42,RU,1602700126
bahia blanca,-38.72,-62.27,63.86,30,1,16.42,AR,1602700127
saint george,37.1,-113.58,69.8,15,1,3.78,US,1602700127
kamenka,51.32,42.77,57.02,41,34,10.07,RU,1602700127
bathsheba,13.22,-59.52,87.8,70,40,12.75,BB,1602700127
kavieng,-2.57,150.8,80.46,79,84,7.52,PG,1602700128
vestmanna,62.16,-7.17,44.6,81,49,1.12,FO,1602700128
vanavara,60.34,102.28,31.14,96,100,10.29,RU,1602700128
qandala,11.47,49.87,86.2,40,3,6.33,SO,1602700128
souillac,-20.52,57.52,73.4,83,20,6.93,MU,1602700128
saskylakh,71.92,114.08,13.46,95,90,14.92,RU,1602700128
ahipara,-35.17,173.17,54.45,80,63,13.85,NZ,1602700129
homer,59.64,-151.55,42.01,93,75,5.82,US,1602700129
zlatograd,41.38,25.1,62.6,77,20,3.36,BG,1602700129
yulara,-25.24,130.99,62.6,25,0,4.7,AU,1602700130
santa cruz de la palma,28.68,-17.76,75.2,73,75,11.41,ES,1602700130
mardin,37.31,40.74,65.46,27,37,2.1,TR,1602700130
iqaluit,63.75,-68.51,35.6,98,90,26.4,CA,1602700130
avera,33.19,-82.53,78.8,57,1,3.36,US,1602700130
soyo,-6.13,12.37,76.1,78,64,7.7,AO,1602700130
azogues,-2.73,-78.83,68.0,42,75,2.24,EC,1602700130
trairi,-3.28,-39.27,85.75,58,12,16.11,BR,1602700131
hasaki,35.73,140.83,64.4,82,75,11.41,JP,1602700131
fredericksburg,38.3,-77.46,75.99,36,1,5.82,US,1602700131
beloha,-25.17,45.05,62.44,78,0,6.69,MG,1602700131
provideniya,64.38,-173.3,30.79,93,69,5.84,RU,1602700131
baska,49.65,18.37,44.6,87,90,21.92,CZ,1602700131
matara,5.95,80.54,78.85,85,88,11.65,LK,1602700132
ponta do sol,32.67,-17.1,71.6,68,75,9.17,PT,1602700132
rizhao,35.43,119.46,57.6,77,99,3.65,CN,1602700093
zhezkazgan,47.8,67.71,51.6,50,0,4.16,KZ,1602700132
chemax,20.65,-87.93,88.83,52,34,4.5,MX,1602700132
funadhoo,6.15,73.27,82.83,78,71,23.29,MV,1602700132
richards bay,-28.78,32.04,64.4,74,73,5.61,ZA,1602700132
carnarvon,-24.87,113.63,66.2,77,0,17.22,AU,1602700133
sabzevar,36.21,57.68,53.29,35,0,10.58,IR,1602700133
kodiak,57.79,-152.41,37.4,86,1,5.82,US,1602700133
manaus,-3.1,-60.02,82.4,78,75,8.05,BR,1602700133
lorengau,-2.02,147.27,80.64,77,96,4.61,PG,1602700133
kabo,7.7,18.63,77.58,75,34,2.71,CF,1602700133
cap malheureux,-19.98,57.61,75.0,76,0,4.0,MU,1602700133
kijang,35.24,129.21,53.6,71,5,1.12,KR,1602700134
fortuna,40.6,-124.16,57.2,100,90,9.17,US,1602700134
labuhan,-6.88,112.21,80.26,79,68,10.58,ID,1602700134
libreville,0.39,9.45,78.8,88,75,9.17,GA,1602699965
belaya gora,68.53,146.42,20.34,97,100,5.84,RU,1602700134
palora,-1.7,-77.93,75.2,78,75,3.36,EC,1602700134
haicheng,40.85,122.75,41.38,54,16,9.13,CN,1602700134
talcahuano,-36.72,-73.12,62.6,63,0,13.87,CL,1602700135
butembo,0.15,29.28,58.51,99,93,1.92,CD,1602700135
pembroke,45.82,-77.12,59.0,47,90,9.17,CA,1602700136
road town,18.42,-64.62,86.0,74,20,5.82,VG,1602700136
kieta,-6.22,155.63,78.13,80,81,1.57,PG,1602700136
payakumbuh,-0.22,100.63,70.99,84,100,3.11,ID,1602700136
niles,42.02,-87.8,70.0,34,75,19.46,US,1602700136
grindavik,63.84,-22.43,48.2,93,90,33.33,IS,1602700137
ca mau,9.18,105.15,76.69,92,100,8.03,VN,1602700137
pitiquito,30.7,-112.08,91.0,35,0,7.74,MX,1602700137
abu kamal,34.45,40.92,77.45,31,37,6.96,SY,1602700137
sola,-13.88,167.55,77.0,100,75,5.55,VU,1602700137
joniskis,56.24,23.62,44.6,100,90,13.87,LT,1602700138
codrington,-38.27,141.97,65.21,57,100,11.9,AU,1602700138
srivardhan,18.03,73.02,77.27,92,100,11.99,IN,1602700138
upata,8.01,-62.4,86.18,62,29,5.01,VE,1602700138
skelleftea,64.75,20.95,39.99,80,29,8.05,SE,1602700138
micheweni,-4.97,39.83,79.75,78,4,11.63,TZ,1602700138
taunggyi,20.78,97.03,61.11,96,38,0.36,MM,1602700070
itarema,-2.92,-39.92,85.14,62,30,20.38,BR,1602700139
tra vinh,9.93,106.35,76.26,93,100,9.06,VN,1602699902
barranca,-10.75,-77.77,68.47,66,74,10.6,PE,1602700139
aksehir,38.36,31.42,63.32,54,1,7.38,TR,1602700139
tokur,53.13,132.9,16.75,93,91,6.17,RU,1602700139
pimentel,-6.84,-79.93,71.6,64,20,16.11,PE,1602700139
salalah,17.02,54.09,80.6,88,20,2.24,OM,1602700139
tongzi,28.78,105.09,57.63,85,96,2.26,CN,1602700140
hithadhoo,-0.6,73.08,83.46,74,54,12.59,MV,1602700140
norden,53.6,7.2,50.0,66,75,12.75,DE,1602700140
talnakh,69.49,88.4,23.0,92,90,15.66,RU,1602700140
geraldton,-28.77,114.6,57.2,82,75,4.7,AU,1602700140
san luis,-33.3,-66.34,80.56,21,100,5.84,AR,1602699848
nuuk,64.18,-51.72,41.0,80,40,3.36,GL,1602700140
coari,-4.08,-63.14,94.32,43,91,2.73,BR,1602700141
trat,12.5,102.5,79.0,10,100,0.72,TH,1602700141
goundam,16.41,-3.67,100.69,11,1,12.95,ML,1602700141
hay river,60.82,-115.8,24.8,62,90,23.04,CA,1602700141
kargasok,59.06,80.86,46.24,91,100,12.44,RU,1602700141
arlit,18.74,7.39,97.52,9,0,3.18,NE,1602700141
zwedru,6.07,-8.13,78.73,78,75,1.68,LR,1602700142
fairbanks,64.84,-147.72,21.99,78,90,2.62,US,1602700142
bereda,43.27,-7.54,55.99,88,13,3.0,ES,1602700142
arraial do cabo,-22.97,-42.03,78.8,74,40,10.29,BR,1602700142
kenai,60.55,-151.26,41.0,80,90,5.77,US,1602700142
muli,2.92,73.57,82.35,80,100,18.39,MV,1602700142
nueva italia,-25.62,-57.5,71.6,94,75,17.22,PY,1602700143
esperance,-33.87,121.9,57.2,100,90,9.17,AU,1602700143
bac lieu,9.29,105.72,78.57,86,100,14.83,VN,1602700143
chicama,-7.84,-79.15,64.4,77,75,12.75,PE,1602700143
sao miguel do araguaia,-13.28,-50.16,96.55,29,44,7.85,BR,1602700143
westport,41.14,-73.36,69.01,48,1,14.99,US,1602700078
nenjiang,49.18,125.22,28.18,85,2,7.2,CN,1602700145
lendava,46.56,16.45,50.0,80,30,1.01,SI,1602700145
zhigansk,66.77,123.37,11.57,94,36,9.48,RU,1602700145
bolobo,-2.17,16.23,75.2,88,60,4.05,CD,1602700145
san vicente,-26.62,-54.13,69.82,89,67,7.05,AR,1602700145
kanashevo,55.22,62.06,55.4,20,45,13.42,RU,1602700145
aberystwyth,52.42,-4.08,46.0,95,62,7.25,GB,1602700146
banjar,-8.19,114.97,80.6,88,40,11.41,ID,1602700146
caraballeda,10.61,-66.85,93.2,59,20,5.82,VE,1602700146
guerrero negro,27.98,-114.06,82.98,38,98,4.88,MX,1602700146
plettenberg bay,-34.05,23.37,59.02,83,0,6.29,ZA,1602700146
itaituba,-4.28,-55.98,95.14,40,39,4.0,BR,1602700146
tahoua,14.89,5.27,93.2,41,20,6.93,NE,1602700146
chokurdakh,70.63,147.92,20.64,98,100,3.6,RU,1602700147
kruisfontein,-34.0,24.73,61.0,73,0,7.0,ZA,1602700147
miri,4.41,114.01,75.2,88,40,6.93,MY,1602700147
atasu,48.68,71.64,46.65,54,0,2.37,KZ,1602700147
shenjiamen,29.96,122.3,68.27,70,22,13.11,CN,1602700147
marawi,8.0,124.29,73.0,96,100,3.0,PH,1602700147
hirara,24.8,125.28,79.34,78,91,16.67,JP,1602699971
lompoc,34.64,-120.46,91.4,25,1,8.05,US,1602700148
tromso,69.65,18.96,39.2,86,75,10.29,NO,1602700148
la plaine,15.33,-61.25,86.0,74,40,3.36,DM,1602700148
auki,-8.77,160.7,76.46,84,61,3.44,SB,1602700148
pisco,-13.7,-76.22,66.2,77,20,10.29,PE,1602700148
molina,-35.12,-71.28,60.8,67,75,5.82,CL,1602700148
moose factory,51.26,-80.61,50.0,43,90,12.75,CA,1602700149
pathein,16.78,94.73,76.24,91,100,0.29,MM,1602700149
hasanpur,28.72,78.28,78.64,46,75,1.68,IN,1602700149
awbari,26.59,12.78,83.16,20,14,2.66,LY,1602700149
anadyr,64.75,177.48,37.4,86,40,8.95,RU,1602700149
rawson,-43.3,-65.1,60.57,30,0,11.16,AR,1602700150
sistranda,63.73,8.83,46.4,81,75,8.05,NO,1602700150
esna,25.29,32.55,89.6,40,0,11.18,EG,1602700150
houston,29.76,-95.36,88.0,54,40,4.7,US,1602699977
praia da vitoria,38.73,-27.07,71.01,88,40,7.7,PT,1602700150
tukrah,32.53,20.58,70.59,61,0,5.06,LY,1602700150
hambantota,6.12,81.12,78.8,100,20,3.36,LK,1602700150
constitucion,-35.33,-72.42,60.06,73,6,7.61,CL,1602700151
sulangan,11.14,123.72,83.01,76,70,13.87,PH,1602700151
moron,-34.65,-58.62,80.6,34,0,6.93,AR,1602700151
saldanha,-33.01,17.94,69.8,37,0,8.05,ZA,1602700151
novi pazar,43.14,20.51,48.76,78,50,1.68,RS,1602700151
bambous virieux,-20.34,57.76,75.0,83,20,6.93,MU,1602700151
san patricio,28.02,-97.52,91.0,55,40,4.7,US,1602700151
byron bay,-28.65,153.62,53.6,93,9,6.76,AU,1602700152
bahia de caraquez,-0.6,-80.42,78.8,69,75,13.87,EC,1602700152
athabasca,54.72,-113.29,36.37,74,39,10.96,CA,1602700152
george town,5.41,100.34,82.4,78,20,3.36,MY,1602700152
ihosy,-22.4,46.12,70.27,79,62,15.1,MG,1602700152
bengkulu,-3.8,102.27,76.62,87,72,3.83,ID,1602700152
mahina,-17.51,-149.49,77.0,78,75,13.87,PF,1602700152
vardo,70.37,31.11,39.2,80,40,13.87,NO,1602700153
cumberland,35.05,-78.87,75.0,43,1,3.36,US,1602700153
macia,-25.03,33.1,63.52,78,1,4.52,MZ,1602699885
aswan,24.09,32.91,90.99,16,0,8.52,EG,1602700153
haines junction,60.75,-137.51,33.62,79,12,2.44,CA,1602700153
xining,36.62,101.77,36.09,81,20,1.52,CN,1602700153
porto da folha,-9.92,-37.28,92.26,33,27,18.97,BR,1602700153
isangel,-19.55,169.27,75.7,85,99,10.07,VU,1602700154
cockburn town,21.46,-71.14,83.59,75,16,10.45,TC,1602700154
paka,4.64,103.44,80.01,88,100,1.12,MY,1602700154
istok,42.78,20.49,55.4,58,40,4.7,XK,1602700154
canutama,-6.53,-64.38,77.4,85,100,2.8,BR,1602700154
agirish,61.92,63.02,33.53,88,91,7.49,RU,1602700154
olafsvik,64.89,-23.71,47.35,89,100,27.67,IS,1602700154
mount pleasant,32.79,-79.86,82.99,69,75,5.82,US,1602700155
santa rosa,14.31,121.11,77.0,94,90,8.05,PH,1602700155
rocha,-34.48,-54.33,70.11,59,0,7.2,UY,1602700155
manavalakurichi,8.13,77.3,80.6,94,40,18.21,IN,1602700155
noumea,-22.28,166.46,69.8,94,75,2.24,NC,1602699927
paracuru,-3.41,-39.03,81.0,70,29,21.99,BR,1602700156
faanui,-16.48,-151.75,78.48,80,16,12.3,PF,1602700156
hamilton,39.18,-84.53,73.4,35,1,11.41,US,1602700156
basti,26.8,82.72,80.02,68,90,3.49,IN,1602700156
acajutla,13.59,-89.83,86.0,58,100,3.36,SV,1602700157
maromitsa,59.87,48.01,40.01,81,100,6.73,RU,1602700157
kasongo-lunda,-6.47,16.82,71.8,93,100,2.17,CD,1602700157
sao filipe,14.9,-24.5,79.54,80,71,10.51,CV,1602700157
moerai,-22.43,-151.33,70.95,89,100,13.18,PF,1602700157
verkh-usugli,52.7,115.17,22.73,89,17,3.04,RU,1602700158
flin flon,54.77,-101.86,32.0,85,75,14.99,CA,1602700158
lagoa,39.05,-27.98,68.68,77,1,6.33,PT,1602700158
waipawa,-41.41,175.52,48.2,70,100,26.4,NZ,1602700158
serenje,-13.23,30.24,70.41,63,6,8.25,ZM,1602700158
sinnamary,5.38,-52.95,86.52,60,3,11.05,GF,1602700158
lebu,-37.62,-73.65,55.87,62,7,18.59,CL,1602700159
bubaque,11.28,-15.83,82.17,77,51,8.99,GW,1602700159
katobu,-4.94,122.53,75.76,94,29,3.0,ID,1602700159
lasa,46.62,10.7,44.01,64,5,3.36,IT,1602700158
polis,35.04,32.43,73.4,73,20,3.36,CY,1602700159
berlevag,70.86,29.09,39.2,86,40,16.11,NO,1602700159
chabahar,25.29,60.64,71.6,49,0,9.1,IR,1602700160
mount isa,-20.73,139.5,77.0,38,0,8.05,AU,1602700161
brownwood,31.71,-98.99,89.6,35,1,13.87,US,1602700161
ostrovnoy,68.05,39.51,35.92,85,99,9.8,RU,1602700161
ilulissat,69.22,-51.1,37.4,55,75,3.36,GL,1602700161
eregli,37.51,34.05,63.21,37,0,3.98,TR,1602700161
tarakan,3.3,117.63,81.05,78,94,7.38,ID,1602699864
karlskrona,56.16,15.59,48.2,81,40,20.8,SE,1602700162
senador jose porfirio,-2.59,-51.95,89.96,50,60,5.37,BR,1602700162
naron,43.52,-8.15,59.0,71,20,5.82,ES,1602700162
sitka,57.05,-135.33,44.6,87,75,6.93,US,1602700162
blairmore,49.6,-114.44,41.0,92,100,4.7,CA,1602700162
airai,-8.93,125.41,60.84,78,92,2.21,TL,1602700162
tautira,-17.73,-149.15,77.0,78,75,13.87,PF,1602700163
burgos,42.34,-3.71,46.0,81,75,16.11,ES,1602700163
quilali,13.57,-86.03,77.0,69,40,13.87,NI,1602700163
bafq,31.61,55.41,55.49,29,0,2.84,IR,1602700163
fort nelson,58.81,-122.7,24.8,79,90,5.82,CA,1602700163
qasigiannguit,68.82,-51.19,37.4,55,75,3.36,GL,1602700163
rancho palos verdes,33.74,-118.39,82.99,32,5,4.7,US,1602700164
schertz,29.55,-98.27,90.0,51,20,9.17,US,1602700164
saint-pierre,-21.34,55.48,75.2,83,75,1.12,RE,1602700164
vilhena,-12.74,-60.15,90.52,39,95,3.62,BR,1602700165
karratha,-20.74,116.85,82.89,30,0,15.01,AU,1602700165
alcantara,-2.41,-44.41,87.8,66,40,16.11,BR,1602700165
daru,-9.08,143.21,77.77,86,94,15.08,PG,1602700165
lata,40.16,-8.33,57.99,76,0,1.99,PT,1602700165
rovnoye,50.78,46.05,58.15,35,97,10.49,RU,1602700165
hernani,43.27,-1.98,55.4,71,40,2.24,ES,1602700165
valente,-11.41,-39.46,94.3,24,14,11.88,BR,1602700166
kilimatinde,-5.85,34.95,75.27,49,4,8.84,TZ,1602700166
comodoro rivadavia,-45.87,-67.5,69.8,19,2,10.29,AR,1602700166
goderich,43.75,-81.72,60.01,67,73,19.6,CA,1602700166
el retorno,2.33,-72.63,94.77,41,9,1.05,CO,1602700166
atar,20.52,-13.05,87.8,43,87,13.87,MR,1602700166
lavrentiya,65.58,-171.0,29.66,91,30,7.85,RU,1602700166
santo andre,-23.66,-46.54,86.0,54,16,14.99,BR,1602700167
ormara,25.21,64.64,83.52,32,0,10.87,PK,1602700167
northam,51.03,-4.22,55.0,74,38,8.99,GB,1602700167
acari,-15.43,-74.62,75.63,43,48,10.65,PE,1602700167
san policarpo,12.18,125.51,77.85,87,100,5.64,PH,1602700167
derbent,42.07,48.29,61.86,84,0,6.51,RU,1602700167
south venice,27.05,-82.42,89.01,52,20,10.29,US,1602700167
iranshahr,27.2,60.68,71.6,9,0,6.93,IR,1602700168
adrar,20.5,-10.07,97.12,18,38,6.85,MR,1602700168
naze,28.37,129.48,71.6,83,40,4.7,JP,1602700004
bilibino,68.05,166.44,23.31,92,100,3.04,RU,1602700169
saint-francois,46.42,3.91,48.2,87,68,5.82,FR,1602700169
bekhtery,46.25,32.29,57.2,82,0,7.14,UA,1602700169
porosozero,62.72,32.73,36.16,84,6,1.63,RU,1602700169
maningrida,-12.07,134.27,77.74,84,65,4.61,AU,1602700170
yeniseysk,58.45,92.17,40.62,89,100,10.04,RU,1602700170
ivanava,52.15,25.54,45.52,76,93,7.74,BY,1602700170
kolyvan,55.31,82.74,48.2,66,88,13.42,RU,1602700170
liwale,-9.77,37.93,75.31,79,85,3.6,TZ,1602700170
athmallik,20.72,84.53,76.35,91,100,3.38,IN,1602700170
sao gabriel da cachoeira,-0.13,-67.09,89.46,59,100,0.63,BR,1602700171
palu,-0.89,119.87,75.99,82,85,3.4,ID,1602700171
yumen,40.28,97.2,37.44,62,0,6.15,CN,1602700171
ekibastuz,51.67,75.37,48.52,52,42,12.41,KZ,1602700171
filadelfia,39.95,-75.16,72.0,40,20,14.99,US,1602700171
sakakah,29.97,40.21,82.4,15,3,5.82,SA,1602700171
xixiang,35.16,112.86,54.0,99,100,3.98,CN,1602700172
tonekabon,36.82,50.87,62.6,82,0,2.24,IR,1602700172
mamallapuram,12.63,80.17,82.4,61,40,6.93,IN,1602700172
los llanos de aridane,28.66,-17.92,75.2,73,75,11.41,ES,1602700172
kilakarai,9.23,78.78,82.44,68,100,16.75,IN,1602700172
inirida,3.87,-67.92,93.09,47,29,1.68,CO,1602700172
nantucket,41.28,-70.1,66.2,48,1,12.75,US,1602700172
hami,42.8,93.45,45.45,54,0,13.18,CN,1602700096
narsaq,60.92,-46.05,41.0,75,20,4.7,GL,1602700173
tucuman,-26.82,-65.22,80.6,32,49,14.99,AR,1602700173
mpika,-11.83,31.45,69.13,70,20,10.27,ZM,1602700173
zyryanka,65.75,150.85,24.93,93,99,7.07,RU,1602700173
nushki,29.55,66.02,51.17,38,0,1.79,PK,1602700173
salinopolis,-0.61,-47.36,84.61,64,80,14.92,BR,1602700173
talara,-4.58,-81.27,73.4,69,30,11.41,PE,1602700174
rubtsovsk,51.5,81.25,43.97,66,56,13.8,RU,1602700174
wanning,18.8,110.4,79.2,89,99,16.82,CN,1602700174
normandin,48.83,-72.53,50.0,87,75,3.36,CA,1602700174
sabang,5.89,95.32,82.76,76,100,14.52,ID,1602700174
idaho falls,43.47,-112.03,54.0,30,1,4.7,US,1602700174
redmond,47.67,-122.12,57.0,81,96,5.23,US,1602700174
zhob,31.34,69.45,64.99,26,0,3.89,PK,1602700175
safford,32.83,-109.71,82.4,12,1,3.36,US,1602700175
aanekoski,62.69,25.82,37.99,93,90,4.7,FI,1602700175
danville,36.59,-79.39,73.0,30,1,1.97,US,1602700175
oktyabrskiy,54.48,53.47,51.24,44,99,8.39,RU,1602700175
mattru,7.62,-11.83,77.5,92,85,5.26,SL,1602700175
freetown,8.48,-13.23,86.0,70,40,9.17,SL,1602700176
bafoulabe,13.81,-10.83,89.76,48,71,2.15,ML,1602700176
vila velha,-20.33,-40.29,86.0,66,20,14.99,BR,1602700176
darhan,49.49,105.92,32.11,83,25,2.98,MN,1602700177
viedma,-40.81,-63.0,66.0,27,0,3.0,AR,1602700177
ossora,59.24,163.07,43.84,95,100,21.21,RU,1602700177
college,64.86,-147.8,21.99,62,75,8.05,US,1602700177
wenling,28.37,121.36,69.01,77,78,9.35,CN,1602700050
batsfjord,70.63,29.72,39.2,81,75,16.11,NO,1602700177
koster,-25.86,26.9,68.58,37,0,7.96,ZA,1602700177
sungurlu,40.17,34.37,67.41,41,0,2.93,TR,1602700178
nianzishan,47.52,122.88,30.76,78,0,6.76,CN,1602700178
paamiut,61.99,-49.67,37.83,88,92,9.4,GL,1602700178
bonnyville,54.27,-110.73,33.8,55,40,8.05,CA,1602700178
coihaique,-45.58,-72.07,55.4,35,100,8.05,CL,1602700178
male,4.17,73.51,84.2,83,75,18.34,MV,1602700134
pacific grove,36.62,-121.92,72.0,53,1,4.7,US,1602700179
falmouth,50.15,-5.07,54.0,76,40,8.05,GB,1602700179
autazes,-3.58,-59.13,95.77,39,85,5.35,BR,1602700179
mingyue,43.11,128.92,29.44,85,0,3.13,CN,1602700179
aykhal,66.0,111.5,19.4,85,90,6.71,RU,1602700180
progreso,21.28,-89.67,87.8,55,75,3.36,MX,1602700180
port hedland,-20.32,118.57,71.6,88,0,6.93,AU,1602700180
beyneu,45.32,55.2,55.92,39,0,11.99,KZ,1602700180
les cayes,18.2,-73.75,85.19,70,20,6.17,HT,1602700180
santa teresa,10.23,-66.66,93.2,59,20,5.82,VE,1602700180
innisfail,-17.53,146.03,69.69,84,28,7.61,AU,1602700181
chojnice,53.7,17.56,45.0,92,99,6.49,PL,1602700181
qaqortoq,60.72,-46.03,41.0,75,20,4.7,GL,1602700181
mangan,27.52,88.53,70.38,42,50,3.74,IN,1602700181
lima,-12.04,-77.03,66.2,72,90,8.05,PE,1602699886
namibe,-15.2,12.15,66.34,79,77,5.39,AO,1602700181
yinchuan,38.47,106.27,50.61,41,94,5.17,CN,1602700181
tsiroanomandidy,-18.77,46.03,79.32,52,92,2.33,MG,1602700181
mineros,-17.12,-63.23,96.8,39,75,21.92,BO,1602700182
prince rupert,54.32,-130.32,48.2,87,90,6.93,CA,1602700182
boysun,38.21,67.2,50.23,48,0,1.48,UZ,1602700183
new milford,40.93,-74.02,71.01,45,1,6.93,US,1602700183
ugoofaaru,5.67,73.0,83.07,77,54,23.2,MV,1602700183
piacabucu,-10.41,-36.43,81.54,61,21,12.73,BR,1602700183
veraval,20.9,70.37,84.97,51,55,7.07,IN,1602700183
rincon,32.3,-81.24,86.0,58,75,8.05,US,1602700183
great yarmouth,52.61,1.73,53.01,95,99,17.0,GB,1602700183
tura,25.52,90.22,74.1,94,12,2.42,IN,1602700184
point pedro,9.82,80.23,83.26,75,100,21.5,LK,1602700184
sao domingos,-13.4,-46.32,91.17,29,47,3.06,BR,1602700184
galle,6.04,80.22,80.47,82,95,14.74,LK,1602700184
sisimiut,66.94,-53.67,34.66,94,100,4.18,GL,1602700184
maumere,-8.62,122.21,79.65,76,39,3.53,ID,1602700184
korla,41.76,86.15,50.31,44,0,6.02,CN,1602700185
mudgee,-32.59,149.59,48.2,93,2,3.36,AU,1602700185
slavkov u brna,49.15,16.88,44.6,87,75,11.41,CZ,1602700186
bambanglipuro,-7.95,110.28,77.29,88,88,5.1,ID,1602700186
anahuac,27.23,-100.15,89.6,52,40,10.29,MX,1602700187
portland,45.52,-122.68,57.99,82,75,4.7,US,1602700075
atbasar,51.8,68.33,49.15,49,36,8.84,KZ,1602700187
lahore,31.55,74.34,77.0,57,0,4.59,PK,1602700015
cidreira,-30.18,-50.21,65.79,69,10,9.26,BR,1602700188
fukue,32.69,128.84,68.25,62,0,19.1,JP,1602700188
te anau,-45.42,167.72,28.9,96,31,1.81,NZ,1602700188
saint-joseph,-21.37,55.62,75.2,83,75,1.12,RE,1602700188
nanortalik,60.14,-45.24,37.94,87,83,3.44,GL,1602700188
king city,36.21,-121.13,84.0,28,0,4.0,US,1602700189
baykit,61.67,96.37,36.68,86,100,11.59,RU,1602700189
farafangana,-22.82,47.83,73.51,89,61,6.35,MG,1602700189
mopti,14.67,-4.0,93.2,56,42,3.53,ML,1602700189
penukonda,14.08,77.58,69.31,86,52,10.76,IN,1602699961
ulkan,57.24,107.32,31.39,96,95,7.2,RU,1602700189
iwanai,42.97,140.51,45.5,74,97,11.41,JP,1602700189
payo,-3.75,103.64,73.8,88,100,1.86,ID,1602700190
ziro,27.63,93.83,53.78,100,0,1.92,IN,1602700190
abha,18.22,42.51,66.2,67,28,7.0,SA,1602700190
bima,-8.47,118.72,77.2,84,100,4.18,ID,1602700190
juneau,58.3,-134.42,44.6,81,75,11.41,US,1602700190
forest,37.36,-79.29,75.99,31,1,3.71,US,1602700190
acapulco,16.86,-99.89,86.0,74,75,12.75,MX,1602700190
dawei,14.08,98.2,75.58,91,66,1.86,MM,1602700190
klaksvik,62.23,-6.59,44.6,81,54,1.12,FO,1602700191
port hardy,50.7,-127.42,50.0,93,75,2.33,CA,1602700191
peniche,39.36,-9.38,62.01,73,3,8.01,PT,1602700191
turayf,31.67,38.66,71.6,46,21,9.17,SA,1602700191
gorele,41.03,39.0,71.6,83,75,3.36,TR,1602700191
port blair,11.67,92.75,80.92,82,100,12.3,IN,1602699906
ghatampur,26.17,80.17,82.54,61,3,6.24,IN,1602700191
necochea,-38.55,-58.74,55.99,70,0,13.0,AR,1602700192
killam,52.78,-111.85,39.99,62,62,10.0,CA,1602700192
santa catalina,9.33,122.86,77.0,94,75,4.7,PH,1602700192
oytal,42.91,73.27,50.09,46,0,2.77,KZ,1602700193
bull savanna,17.89,-77.59,83.44,69,1,7.96,JM,1602700193
collie,-33.37,116.15,55.99,70,71,5.79,AU,1602700193
lebowakgomo,-24.2,29.5,68.0,56,0,17.22,ZA,1602700194
khuldabad,20.05,75.18,77.0,88,40,9.17,IN,1602700194
dingle,11.0,122.67,75.33,90,100,4.32,PH,1602700194
wajir,1.75,40.06,88.38,44,58,17.83,KE,1602700194
wegrow,52.4,22.02,46.99,89,100,8.7,PL,1602700194
kirakira,-10.45,161.92,78.15,82,81,4.45,SB,1602700194
ariogala,55.27,23.47,48.2,87,100,1.12,LT,1602700195
ust-ilimsk,58.0,102.66,32.29,97,100,7.38,RU,1602700195
amos,48.57,-78.12,51.01,53,75,9.17,CA,1602700195
natal,-5.79,-35.21,84.2,62,75,13.87,BR,1602700195
laguna,38.42,-121.42,82.99,34,1,10.29,US,1602700195
turiacu,-1.66,-45.37,89.06,50,76,8.93,BR,1602700195
kahului,20.89,-156.47,80.6,61,1,1.1,US,1602700195
poum,-20.23,164.02,74.08,87,1,12.93,NC,1602700195
alipur chatha,32.27,73.82,69.8,83,0,3.85,PK,1602700196
teya,60.38,92.63,41.14,85,100,15.61,RU,1602700196
namie,37.48,141.0,60.01,89,100,4.36,JP,1602700026
kantabanji,20.48,82.92,74.3,94,96,6.42,IN,1602700196
ponta delgada,37.73,-25.67,71.6,78,20,13.87,PT,1602700196
maneadero,31.72,-116.57,86.31,30,0,5.35,MX,1602700196
aklavik,68.22,-135.01,21.2,92,75,3.36,CA,1602700196
ozernovskiy,51.5,156.52,45.14,75,99,19.51,RU,1602700197
havoysund,71.0,24.66,37.4,74,75,28.86,NO,1602700197
gazimurskiy zavod,51.55,118.33,22.08,87,0,3.44,RU,1602700197
franklin park,41.94,-87.87,70.0,34,75,19.46,US,1602700197
sechura,-5.56,-80.82,75.85,57,38,14.61,PE,1602700197
khvastovichi,53.47,35.09,56.61,81,58,7.18,RU,1602700197
paracatu,-17.22,-46.87,90.34,38,33,6.96,BR,1602700197
puerto escondido,15.85,-97.07,86.0,62,75,8.05,MX,1602700198
prata,-19.31,-48.92,97.97,20,58,4.74,BR,1602700198
baghdad,33.34,44.4,75.2,33,25,6.98,IQ,1602700198
areni,39.72,45.18,57.2,47,0,6.93,AM,1602700198
arco,45.92,10.89,52.0,69,26,2.35,IT,1602700198
kamensk-uralskiy,56.42,61.93,47.62,56,99,12.91,RU,1602700153
rayadrug,14.7,76.87,71.87,87,36,17.05,IN,1602700199
dabat,12.98,37.77,53.37,90,65,2.77,ET,1602700199
hualmay,-11.1,-77.61,68.45,66,57,8.86,PE,1602700199
baculin,7.45,126.58,78.06,70,100,3.94,PH,1602700199
vilyuysk,63.76,121.62,17.76,94,1,6.44,RU,1602700199
werota,11.92,37.7,63.37,82,84,3.31,ET,1602700199
guiratinga,-16.35,-53.76,98.1,24,42,5.23,BR,1602700200
mesyagutovo,55.53,58.25,48.24,51,60,12.64,RU,1602700200
verkhoyansk,67.54,133.38,18.52,95,100,4.79,RU,1602700200
sioux lookout,50.1,-91.92,42.8,81,75,8.05,CA,1602700200
yerofey pavlovich,53.97,121.97,20.66,90,66,2.51,RU,1602700201
guarda,40.54,-7.27,55.0,57,58,1.01,PT,1602700201
kapuskasing,49.42,-82.43,51.8,40,75,9.17,CA,1602700201
miles city,46.41,-105.84,42.8,81,90,27.51,US,1602700201
garelochhead,56.08,-4.83,51.8,76,5,6.93,GB,1602700201
svetlogorsk,52.63,29.73,52.32,75,100,6.29,BY,1602700201
ouadda,8.08,22.4,70.45,89,99,3.47,CF,1602700202
isiro,2.77,27.62,68.09,89,3,1.79,CD,1602700202
los algarrobos,8.5,-82.43,82.4,74,40,8.05,PA,1602700202
pushkino,56.02,37.87,55.4,93,20,11.18,RU,1602700202
krasnoselkup,65.7,82.47,28.11,95,0,13.53,RU,1602700202
nishihara,26.18,127.76,78.8,94,75,12.91,JP,1602700202
